{
    "site_id": {
        "AR-SLu": {
            "location": "San Luis",
            "latitude": "-33.4648",
            "longitude": "-66.4598"
        },
        "AR-Vir": {
            "location": "Virasoro",
            "latitude": "-28.2395",
            "longitude": "-56.1886"
        },
        "AT-Neu": {
            "location": "Neustift",
            "latitude": "47.1167",
            "longitude": "11.3175"
        },
        "AU-ASM": {
            "location": "Alice Springs",
            "latitude": "-22.2830",
            "longitude": "133.2490"
        },
        "AU-Ade": {
            "location": "Adelaide River",
            "latitude": "-13.0769",
            "longitude": "131.1178"
        },
        "AU-Cpr": {
            "location": "Calperum",
            "latitude": "-34.0021",
            "longitude": "140.5891"
        },
        "AU-Cum": {
            "location": "Cumberland Plain",
            "latitude": "-33.6152",
            "longitude": "150.7236"
        },
        "AU-DaP": {
            "location": "Daly River Pasture",
            "latitude": "-14.0633",
            "longitude": "131.3181"
        },
        "AU-DaS": {
            "location": "Daly River Savanna",
            "latitude": "-14.1593",
            "longitude": "131.3881"
        },
        "AU-Dry": {
            "location": "Dry River",
            "latitude": "-15.2588",
            "longitude": "132.3706"
        },
        "AU-Emr": {
            "location": "Emerald",
            "latitude": "-23.8587",
            "longitude": "148.4746"
        },
        "AU-Fog": {
            "location": "Fogg Dam",
            "latitude": "-12.5452",
            "longitude": "131.3072"
        },
        "AU-GWW": {
            "location": "Great Western Woodlands, Western Australia, Australia",
            "latitude": "-30.1913",
            "longitude": "120.6541"
        },
        "AU-Gin": {
            "location": "Gingin",
            "latitude": "-31.3764",
            "longitude": "115.7138"
        },
        "AU-How": {
            "location": "Howard Springs",
            "latitude": "-12.4943",
            "longitude": "131.1523"
        },
        "AU-Lox": {
            "location": "Loxton",
            "latitude": "-34.4704",
            "longitude": "140.6551"
        },
        "AU-RDF": {
            "location": "Red Dirt Melon Farm, Northern Territory",
            "latitude": "-14.5636",
            "longitude": "132.4776"
        },
        "AU-Rig": {
            "location": "Riggs Creek",
            "latitude": "-36.6499",
            "longitude": "145.5759"
        },
        "AU-Rob": {
            "location": "Robson Creek, Queensland, Australia",
            "latitude": "-17.1175",
            "longitude": "145.6301"
        },
        "AU-Stp": {
            "location": "Sturt Plains",
            "latitude": "-17.1507",
            "longitude": "133.3502"
        },
        "AU-TTE": {
            "location": "Ti Tree East",
            "latitude": "-22.2870",
            "longitude": "133.6400"
        },
        "AU-Tum": {
            "location": "Tumbarumba",
            "latitude": "-35.6566",
            "longitude": "148.1517"
        },
        "AU-Wac": {
            "location": "Wallaby Creek",
            "latitude": "-37.4259",
            "longitude": "145.1878"
        },
        "AU-Whr": {
            "location": "Whroo",
            "latitude": "-36.6732",
            "longitude": "145.0294"
        },
        "AU-Wom": {
            "location": "Wombat",
            "latitude": "-37.4222",
            "longitude": "144.0944"
        },
        "AU-Ync": {
            "location": "Jaxa",
            "latitude": "-34.9893",
            "longitude": "146.2907"
        },
        "BE-Bra": {
            "location": "Brasschaat",
            "latitude": "51.3076",
            "longitude": "4.5198"
        },
        "BE-Lon": {
            "location": "Lonzee",
            "latitude": "50.5516",
            "longitude": "4.7462"
        },
        "BE-Vie": {
            "location": "Vielsalm",
            "latitude": "50.3049",
            "longitude": "5.9981"
        },
        "BR-Npw": {
            "location": "Northern Pantanal Wetland",
            "latitude": "-16.4980",
            "longitude": "-56.4120"
        },
        "BR-Sa1": {
            "location": "Santarem-Km67-Primary Forest",
            "latitude": "-2.8567",
            "longitude": "-54.9589"
        },
        "BR-Sa3": {
            "location": "Santarem-Km83-Logged Forest",
            "latitude": "-3.0180",
            "longitude": "-54.9714"
        },
        "BW-Gum": {
            "location": "Guma",
            "latitude": "-18.9647",
            "longitude": "22.3711"
        },
        "BW-Nxr": {
            "location": "Nxaraga",
            "latitude": "-19.5481",
            "longitude": "23.1792"
        },
        "CA-Gro": {
            "location": "Ontario - Groundhog River, Boreal Mixedwood Forest",
            "latitude": "48.2167",
            "longitude": "-82.1556"
        },
        "CA-Man": {
            "location": "Manitoba - Northern Old Black Spruce (former BOREAS Northern Study Area)",
            "latitude": "55.8796",
            "longitude": "-98.4808"
        },
        "CA-NS1": {
            "location": "UCI-1850 burn site",
            "latitude": "55.8792",
            "longitude": "-98.4839"
        },
        "CA-NS2": {
            "location": "UCI-1930 burn site",
            "latitude": "55.9058",
            "longitude": "-98.5247"
        },
        "CA-NS3": {
            "location": "UCI-1964 burn site",
            "latitude": "55.9117",
            "longitude": "-98.3822"
        },
        "CA-NS4": {
            "location": "UCI-1964 burn site wet",
            "latitude": "55.9144",
            "longitude": "-98.3806"
        },
        "CA-NS5": {
            "location": "UCI-1981 burn site",
            "latitude": "55.8631",
            "longitude": "-98.4850"
        },
        "CA-NS6": {
            "location": "UCI-1989 burn site",
            "latitude": "55.9167",
            "longitude": "-98.9644"
        },
        "CA-NS7": {
            "location": "UCI-1998 burn site",
            "latitude": "56.6358",
            "longitude": "-99.9483"
        },
        "CA-Oas": {
            "location": "Saskatchewan - Western Boreal, Mature Aspen",
            "latitude": "53.6289",
            "longitude": "-106.1978"
        },
        "CA-Obs": {
            "location": "Saskatchewan - Western Boreal, Mature Black Spruce",
            "latitude": "53.9872",
            "longitude": "-105.1178"
        },
        "CA-Qfo": {
            "location": "Quebec - Eastern Boreal, Mature Black Spruce",
            "latitude": "49.6925",
            "longitude": "-74.3421"
        },
        "CA-SCB": {
            "location": "Scotty Creek Bog",
            "latitude": "61.3089",
            "longitude": "-121.2984"
        },
        "CA-SCC": {
            "location": "Scotty Creek Landscape",
            "latitude": "61.3079",
            "longitude": "-121.2992"
        },
        "CA-SF1": {
            "location": "Saskatchewan - Western Boreal, forest burned in 1977",
            "latitude": "54.4850",
            "longitude": "-105.8176"
        },
        "CA-SF2": {
            "location": "Saskatchewan - Western Boreal, forest burned in 1989",
            "latitude": "54.2539",
            "longitude": "-105.8775"
        },
        "CA-SF3": {
            "location": "Saskatchewan - Western Boreal, forest burned in 1998",
            "latitude": "54.0916",
            "longitude": "-106.0053"
        },
        "CA-TP1": {
            "location": "Ontario - Turkey Point 2002 Plantation White Pine",
            "latitude": "42.6609",
            "longitude": "-80.5595"
        },
        "CA-TP2": {
            "location": "Ontario - Turkey Point 1989 Plantation White Pine",
            "latitude": "42.7744",
            "longitude": "-80.4588"
        },
        "CA-TP3": {
            "location": "Ontario - Turkey Point 1974 Plantation White Pine",
            "latitude": "42.7068",
            "longitude": "-80.3483"
        },
        "CA-TP4": {
            "location": "Ontario - Turkey Point 1939 Plantation White Pine",
            "latitude": "42.7102",
            "longitude": "-80.3574"
        },
        "CA-TPD": {
            "location": "Ontario - Turkey Point Mature Deciduous",
            "latitude": "42.6353",
            "longitude": "-80.5577"
        },
        "CG-Tch": {
            "location": "Tchizalamou",
            "latitude": "-4.2892",
            "longitude": "11.6564"
        },
        "CH-Cha": {
            "location": "Chamau",
            "latitude": "47.2102",
            "longitude": "8.4104"
        },
        "CH-Dav": {
            "location": "Davos",
            "latitude": "46.8153",
            "longitude": "9.8559"
        },
        "CH-Fru": {
            "location": "Früebüel ",
            "latitude": "47.1158",
            "longitude": "8.5378"
        },
        "CH-Lae": {
            "location": "Laegern",
            "latitude": "47.4783",
            "longitude": "8.3644"
        },
        "CH-Oe1": {
            "location": "Oensingen grassland",
            "latitude": "47.2858",
            "longitude": "7.7319"
        },
        "CH-Oe2": {
            "location": "Oensingen crop",
            "latitude": "47.2864",
            "longitude": "7.7337"
        },
        "CN-Cha": {
            "location": "Changbaishan",
            "latitude": "42.4025",
            "longitude": "128.0958"
        },
        "CN-Cng": {
            "location": "Changling",
            "latitude": "44.5934",
            "longitude": "123.5092"
        },
        "CN-Dan": {
            "location": "Dangxiong",
            "latitude": "30.4978",
            "longitude": "91.0664"
        },
        "CN-Din": {
            "location": "Dinghushan",
            "latitude": "23.1733",
            "longitude": "112.5361"
        },
        "CN-Du2": {
            "location": "Duolun_grassland (D01)",
            "latitude": "42.0467",
            "longitude": "116.2836"
        },
        "CN-Du3": {
            "location": "Duolun Degraded Meadow",
            "latitude": "42.0551",
            "longitude": "116.2809"
        },
        "CN-Ha2": {
            "location": "Haibei Shrubland",
            "latitude": "37.6086",
            "longitude": "101.3269"
        },
        "CN-HaM": {
            "location": "Haibei Alpine Tibet site",
            "latitude": "37.3700",
            "longitude": "101.1800"
        },
        "CN-Hgu": {
            "location": "Hongyuan",
            "latitude": "32.8453",
            "longitude": "102.5900"
        },
        "CN-Qia": {
            "location": "Qianyanzhou",
            "latitude": "26.7414",
            "longitude": "115.0581"
        },
        "CN-Sw2": {
            "location": "Siziwang Grazed (SZWG)",
            "latitude": "41.7902",
            "longitude": "111.8971"
        },
        "CZ-BK1": {
            "location": "Bily Kriz forest",
            "latitude": "49.5021",
            "longitude": "18.5369"
        },
        "CZ-BK2": {
            "location": "Bily Kriz grassland",
            "latitude": "49.4944",
            "longitude": "18.5429"
        },
        "CZ-wet": {
            "location": "Trebon (CZECHWET)",
            "latitude": "49.0247",
            "longitude": "14.7704"
        },
        "DE-Akm": {
            "location": "Anklam",
            "latitude": "53.8662",
            "longitude": "13.6834"
        },
        "DE-Dgw": {
            "location": "Dagowsee",
            "latitude": "53.1514",
            "longitude": "13.0543"
        },
        "DE-Geb": {
            "location": "Gebesee",
            "latitude": "51.0997",
            "longitude": "10.9146"
        },
        "DE-Gri": {
            "location": "Grillenburg",
            "latitude": "50.9500",
            "longitude": "13.5126"
        },
        "DE-Hai": {
            "location": "Hainich",
            "latitude": "51.0792",
            "longitude": "10.4522"
        },
        "DE-Hte": {
            "location": "Huetelmoor",
            "latitude": "54.2103",
            "longitude": "12.1761"
        },
        "DE-Kli": {
            "location": "Klingenberg",
            "latitude": "50.8931",
            "longitude": "13.5224"
        },
        "DE-Lkb": {
            "location": "Lackenberg",
            "latitude": "49.0996",
            "longitude": "13.3047"
        },
        "DE-Lnf": {
            "location": "Leinefelde",
            "latitude": "51.3282",
            "longitude": "10.3678"
        },
        "DE-Obe": {
            "location": "Oberbärenburg",
            "latitude": "50.7867",
            "longitude": "13.7213"
        },
        "DE-RuR": {
            "location": "Rollesbroich",
            "latitude": "50.6219",
            "longitude": "6.3041"
        },
        "DE-RuS": {
            "location": "Selhausen Juelich",
            "latitude": "50.8659",
            "longitude": "6.4471"
        },
        "DE-Seh": {
            "location": "Selhausen",
            "latitude": "50.8706",
            "longitude": "6.4497"
        },
        "DE-SfN": {
            "location": "Schechenfilz Nord",
            "latitude": "47.8064",
            "longitude": "11.3275"
        },
        "DE-Spw": {
            "location": "Spreewald",
            "latitude": "51.8922",
            "longitude": "14.0337"
        },
        "DE-Tha": {
            "location": "Tharandt",
            "latitude": "50.9626",
            "longitude": "13.5651"
        },
        "DE-Zrk": {
            "location": "Zarnekow",
            "latitude": "53.8759",
            "longitude": "12.8890"
        },
        "DK-Eng": {
            "location": "Enghave",
            "latitude": "55.6905",
            "longitude": "12.1918"
        },
        "DK-Fou": {
            "location": "Foulum",
            "latitude": "56.4842",
            "longitude": "9.5872"
        },
        "DK-Sor": {
            "location": "Soroe",
            "latitude": "55.4859",
            "longitude": "11.6446"
        },
        "ES-Amo": {
            "location": "Amoladeras",
            "latitude": "36.8336",
            "longitude": "-2.2523"
        },
        "ES-LJu": {
            "location": "Llano de los Juanes",
            "latitude": "36.9266",
            "longitude": "-2.7521"
        },
        "ES-LgS": {
            "location": "Laguna Seca",
            "latitude": "37.0979",
            "longitude": "-2.9658"
        },
        "ES-Ln2": {
            "location": "Lanjaron-Salvage logging",
            "latitude": "36.9695",
            "longitude": "-3.4758"
        },
        "FI-Hyy": {
            "location": "Hyytiala",
            "latitude": "61.8474",
            "longitude": "24.2948"
        },
        "FI-Jok": {
            "location": "Jokioinen",
            "latitude": "60.8986",
            "longitude": "23.5134"
        },
        "FI-Let": {
            "location": "Lettosuo",
            "latitude": "60.6418",
            "longitude": "23.9595"
        },
        "FI-Lom": {
            "location": "Lompolojankka",
            "latitude": "67.9972",
            "longitude": "24.2092"
        },
        "FI-Si2": {
            "location": "Siikaneva-2 Bog",
            "latitude": "61.8372",
            "longitude": "24.1967"
        },
        "FI-Sii": {
            "location": "Siikaneva",
            "latitude": "61.8327",
            "longitude": "24.1928"
        },
        "FI-Sod": {
            "location": "Sodankyla",
            "latitude": "67.3624",
            "longitude": "26.6386"
        },
        "FR-Fon": {
            "location": "Fontainebleau-Barbeau",
            "latitude": "48.4764",
            "longitude": "2.7801"
        },
        "FR-Gri": {
            "location": "Grignon",
            "latitude": "48.8442",
            "longitude": "1.9519"
        },
        "FR-LBr": {
            "location": "Le Bray",
            "latitude": "44.7171",
            "longitude": "-0.7693"
        },
        "FR-LGt": {
            "location": "La Guette",
            "latitude": "47.3229",
            "longitude": "2.2841"
        },
        "FR-Pue": {
            "location": "Puechabon",
            "latitude": "43.7413",
            "longitude": "3.5957"
        },
        "GF-Guy": {
            "location": "Guyaflux (French Guiana)",
            "latitude": "5.2788",
            "longitude": "-52.9249"
        },
        "GH-Ank": {
            "location": "Ankasa",
            "latitude": "5.2685",
            "longitude": "-2.6942"
        },
        "GL-NuF": {
            "location": "Nuuk Fen",
            "latitude": "64.1308",
            "longitude": "-51.3861"
        },
        "GL-ZaF": {
            "location": "Zackenberg Fen",
            "latitude": "74.4814",
            "longitude": "-20.5545"
        },
        "GL-ZaH": {
            "location": "Zackenberg Heath",
            "latitude": "74.4733",
            "longitude": "-20.5503"
        },
        "HK-MPM": {
            "location": "Mai Po Mangrove",
            "latitude": "22.4982",
            "longitude": "114.0292"
        },
        "ID-Pag": {
            "location": "Palangkaraya undrained forest",
            "latitude": "-2.3200",
            "longitude": "113.9000"
        },
        "IT-BCi": {
            "location": "Borgo Cioffi",
            "latitude": "40.5237",
            "longitude": "14.9574"
        },
        "IT-CA1": {
            "location": "Castel d'Asso1",
            "latitude": "42.3804",
            "longitude": "12.0266"
        },
        "IT-CA2": {
            "location": "Castel d'Asso2",
            "latitude": "42.3772",
            "longitude": "12.0260"
        },
        "IT-CA3": {
            "location": "Castel d'Asso3",
            "latitude": "42.3800",
            "longitude": "12.0222"
        },
        "IT-Cas": {
            "location": "Castellaro",
            "latitude": "45.0700",
            "longitude": "8.7175"
        },
        "IT-Col": {
            "location": "Collelongo",
            "latitude": "41.8494",
            "longitude": "13.5881"
        },
        "IT-Cp2": {
            "location": "Castelporziano2",
            "latitude": "41.7043",
            "longitude": "12.3573"
        },
        "IT-Cpz": {
            "location": "Castelporziano",
            "latitude": "41.7052",
            "longitude": "12.3761"
        },
        "IT-Isp": {
            "location": "Ispra ABC-IS",
            "latitude": "45.8126",
            "longitude": "8.6336"
        },
        "IT-La2": {
            "location": "Lavarone2",
            "latitude": "45.9542",
            "longitude": "11.2853"
        },
        "IT-Lav": {
            "location": "Lavarone",
            "latitude": "45.9562",
            "longitude": "11.2813"
        },
        "IT-MBo": {
            "location": "Monte Bondone",
            "latitude": "46.0147",
            "longitude": "11.0458"
        },
        "IT-Noe": {
            "location": "Arca di Noe - Le Prigionette",
            "latitude": "40.6062",
            "longitude": "8.1517"
        },
        "IT-PT1": {
            "location": "Parco Ticino forest",
            "latitude": "45.2009",
            "longitude": "9.0610"
        },
        "IT-Ren": {
            "location": "Renon",
            "latitude": "46.5869",
            "longitude": "11.4337"
        },
        "IT-Ro1": {
            "location": "Roccarespampani 1",
            "latitude": "42.4081",
            "longitude": "11.9300"
        },
        "IT-Ro2": {
            "location": "Roccarespampani 2",
            "latitude": "42.3903",
            "longitude": "11.9209"
        },
        "IT-SR2": {
            "location": "San Rossore 2",
            "latitude": "43.7320",
            "longitude": "10.2909"
        },
        "IT-SRo": {
            "location": "San Rossore",
            "latitude": "43.7279",
            "longitude": "10.2844"
        },
        "IT-Tor": {
            "location": "Torgnon",
            "latitude": "45.8444",
            "longitude": "7.5781"
        },
        "JP-BBY": {
            "location": "Bibai bog",
            "latitude": "43.3230",
            "longitude": "141.8107"
        },
        "JP-MBF": {
            "location": "Moshiri Birch Forest Site",
            "latitude": "44.3869",
            "longitude": "142.3186"
        },
        "JP-Mse": {
            "location": "Mase rice paddy field",
            "latitude": "36.0539",
            "longitude": "140.0269"
        },
        "JP-SMF": {
            "location": "Seto Mixed Forest Site",
            "latitude": "35.2617",
            "longitude": "137.0788"
        },
        "JP-SwL": {
            "location": "Suwa Lake",
            "latitude": "36.0466",
            "longitude": "138.1084"
        },
        "KR-CRK": {
            "location": "Cheorwon Rice paddy",
            "latitude": "38.2013",
            "longitude": "127.2506"
        },
        "MY-MLM": {
            "location": "Maludam National Park",
            "latitude": "1.4536",
            "longitude": "111.1495"
        },
        "MY-PSO": {
            "location": "Pasoh Forest Reserve (PSO)",
            "latitude": "2.9730",
            "longitude": "102.3062"
        },
        "NL-Hor": {
            "location": "Horstermeer",
            "latitude": "52.2403",
            "longitude": "5.0713"
        },
        "NL-Loo": {
            "location": "Loobos",
            "latitude": "52.1666",
            "longitude": "5.7436"
        },
        "NZ-Kop": {
            "location": "Kopuatai",
            "latitude": "-37.3879",
            "longitude": "175.5539"
        },
        "PA-SPn": {
            "location": "Sardinilla Plantation",
            "latitude": "9.3181",
            "longitude": "-79.6346"
        },
        "PA-SPs": {
            "location": "Sardinilla-Pasture",
            "latitude": "9.3138",
            "longitude": "-79.6314"
        },
        "PH-RiF": {
            "location": "Philippines Rice Institute flooded",
            "latitude": "14.1412",
            "longitude": "121.2653"
        },
        "RU-Ch2": {
            "location": "Chersky reference",
            "latitude": "68.6169",
            "longitude": "161.3509"
        },
        "RU-Che": {
            "location": "Cherski",
            "latitude": "68.6130",
            "longitude": "161.3414"
        },
        "RU-Cok": {
            "location": "Chokurdakh",
            "latitude": "70.8291",
            "longitude": "147.4943"
        },
        "RU-Fy2": {
            "location": "Fyodorovskoye dry spruce",
            "latitude": "56.4476",
            "longitude": "32.9019"
        },
        "RU-Fyo": {
            "location": "Fyodorovskoye",
            "latitude": "56.4615",
            "longitude": "32.9221"
        },
        "RU-Ha1": {
            "location": "Hakasia steppe",
            "latitude": "54.7252",
            "longitude": "90.0022"
        },
        "RU-Sam": {
            "location": "Samoylov",
            "latitude": "72.3738",
            "longitude": "126.4958"
        },
        "RU-SkP": {
            "location": "Yakutsk Spasskaya Pad larch",
            "latitude": "62.2550",
            "longitude": "129.1680"
        },
        "RU-Tks": {
            "location": "Tiksi",
            "latitude": "71.5943",
            "longitude": "128.8878"
        },
        "RU-Vrk": {
            "location": "Seida/Vorkuta",
            "latitude": "67.0547",
            "longitude": "62.9405"
        },
        "SD-Dem": {
            "location": "Demokeya",
            "latitude": "13.2829",
            "longitude": "30.4783"
        },
        "SE-Deg": {
            "location": "Degero",
            "latitude": "64.1820",
            "longitude": "19.5565"
        },
        "SE-St1": {
            "location": "Stordalen grassland",
            "latitude": "68.3541",
            "longitude": "19.0503"
        },
        "SJ-Adv": {
            "location": "Adventdalen",
            "latitude": "78.1860",
            "longitude": "15.9230"
        },
        "SJ-Blv": {
            "location": "Bayelva, Spitsbergen",
            "latitude": "78.9216",
            "longitude": "11.8311"
        },
        "SN-Dhr": {
            "location": "Dahra",
            "latitude": "15.4028",
            "longitude": "-15.4322"
        },
        "UK-LBT": {
            "location": "London_BT",
            "latitude": "51.5215",
            "longitude": "-0.1389"
        },
        "US-A03": {
            "location": "ARM-AMF3-Oliktok",
            "latitude": "70.4953",
            "longitude": "-149.8823"
        },
        "US-A10": {
            "location": "ARM-NSA-Barrow",
            "latitude": "71.3242",
            "longitude": "-156.6149"
        },
        "US-AR1": {
            "location": "ARM USDA UNL OSU Woodward Switchgrass 1",
            "latitude": "36.4267",
            "longitude": "-99.4200"
        },
        "US-AR2": {
            "location": "ARM USDA UNL OSU Woodward Switchgrass 2",
            "latitude": "36.6358",
            "longitude": "-99.5975"
        },
        "US-ARM-SGP": {
            "location": "ARM Southern Great Plains site- Lamont",
            "latitude": "36.6058",
            "longitude": "-97.4888"
        },
        "US-ARb": {
            "location": "ARM Southern Great Plains burn site- Lamont",
            "latitude": "35.5497",
            "longitude": "-98.0402"
        },
        "US-ARc": {
            "location": "ARM Southern Great Plains control site- Lamont",
            "latitude": "35.5465",
            "longitude": "-98.0400"
        },
        "US-Atq": {
            "location": "Atqasuk",
            "latitude": "70.4696",
            "longitude": "-157.4089"
        },
        "US-BZB": {
            "location": "Bonanza Creek Thermokarst Bog",
            "latitude": "64.6955",
            "longitude": "-148.3208"
        },
        "US-BZF": {
            "location": "Bonanza Creek Rich Fen",
            "latitude": "64.7013",
            "longitude": "-148.3121"
        },
        "US-BZS": {
            "location": "Bonanza Creek Black Spruce",
            "latitude": "64.6963",
            "longitude": "-148.3235"
        },
        "US-Beo": {
            "location": "Barrow Environmental Observatory (BEO) tower",
            "latitude": "71.2810",
            "longitude": "-156.6123"
        },
        "US-Bes": {
            "location": "Barrow-Bes (Biocomplexity Experiment South tower)",
            "latitude": "71.2809",
            "longitude": "-156.5965"
        },
        "US-Bi1": {
            "location": "Bouldin Island Alfalfa",
            "latitude": "38.0992",
            "longitude": "-121.4993"
        },
        "US-Bi2": {
            "location": "Bouldin Island corn",
            "latitude": "38.1091",
            "longitude": "-121.5351"
        },
        "US-Blo": {
            "location": "Blodgett Forest",
            "latitude": "38.8953",
            "longitude": "-120.6328"
        },
        "US-CRT": {
            "location": "Curtice Walter-Berger cropland",
            "latitude": "41.6285",
            "longitude": "-83.3471"
        },
        "US-Cop": {
            "location": "Corral Pocket",
            "latitude": "38.0900",
            "longitude": "-109.3900"
        },
        "US-DPW": {
            "location": "Disney Wilderness Preserve Wetland",
            "latitude": "28.0521",
            "longitude": "-81.4361"
        },
        "US-EDN": {
            "location": "Eden Landing Ecological Reserve",
            "latitude": "37.6156",
            "longitude": "-122.1140"
        },
        "US-EML": {
            "location": "Eight Mile Lake Permafrost thaw gradient, Healy Alaska.",
            "latitude": "63.8784",
            "longitude": "-149.2536"
        },
        "US-GBT": {
            "location": "GLEES Brooklyn Tower",
            "latitude": "41.3658",
            "longitude": "-106.2397"
        },
        "US-GLE": {
            "location": "GLEES",
            "latitude": "41.3665",
            "longitude": "-106.2399"
        },
        "US-Goo": {
            "location": "Goodwin Creek",
            "latitude": "34.2547",
            "longitude": "-89.8735"
        },
        "US-HRA": {
            "location": "Humnoke Farm Rice Field – Field A",
            "latitude": "34.5852",
            "longitude": "-91.7517"
        },
        "US-HRC": {
            "location": "Humnoke Farm Rice Field – Field C",
            "latitude": "34.5888",
            "longitude": "-91.7517"
        },
        "US-Ha1": {
            "location": "Harvard Forest EMS Tower (HFR1)",
            "latitude": "42.5378",
            "longitude": "-72.1715"
        },
        "US-Ho1": {
            "location": "Howland Forest (main tower)",
            "latitude": "45.2041",
            "longitude": "-68.7402"
        },
        "US-IB2": {
            "location": "Fermi National Accelerator Laboratory- Batavia (Prairie site)",
            "latitude": "41.8406",
            "longitude": "-88.2410"
        },
        "US-ICs": {
            "location": "Imnavait Creek Watershed Wet Sedge Tundra",
            "latitude": "68.6058",
            "longitude": "-149.3110"
        },
        "US-Ivo": {
            "location": "Ivotuk",
            "latitude": "68.4865",
            "longitude": "-155.7503"
        },
        "US-KS1": {
            "location": "Kennedy Space Center (slash pine)",
            "latitude": "28.4583",
            "longitude": "-80.6709"
        },
        "US-KS2": {
            "location": "Kennedy Space Center (scrub oak)",
            "latitude": "28.6086",
            "longitude": "-80.6715"
        },
        "US-LA1": {
            "location": "Pointe-aux-Chenes Brackish Marsh",
            "latitude": "29.5013",
            "longitude": "-90.4449"
        },
        "US-LA2": {
            "location": "Salvador WMA Freshwater Marsh",
            "latitude": "29.8587",
            "longitude": "-90.2869"
        },
        "US-LWW": {
            "location": "Little Washita Watershed",
            "latitude": "34.9604",
            "longitude": "-97.9789"
        },
        "US-Lin": {
            "location": "Lindcove Orange Orchard",
            "latitude": "36.3566",
            "longitude": "-119.0922"
        },
        "US-Los": {
            "location": "Lost Creek",
            "latitude": "46.0827",
            "longitude": "-89.9792"
        },
        "US-MAC": {
            "location": "MacArthur Agro-Ecology",
            "latitude": "27.1632",
            "longitude": "-81.1873"
        },
        "US-MMS": {
            "location": "Morgan Monroe State Forest",
            "latitude": "39.3232",
            "longitude": "-86.4131"
        },
        "US-MRM": {
            "location": "Marsh Resource Meadowlands Mitigation Bank",
            "latitude": "40.8164",
            "longitude": "-74.0435"
        },
        "US-Me1": {
            "location": "Metolius - Eyerly burn",
            "latitude": "44.5794",
            "longitude": "-121.5000"
        },
        "US-Me2": {
            "location": "Metolius mature ponderosa pine",
            "latitude": "44.4526",
            "longitude": "-121.5589"
        },
        "US-Me3": {
            "location": "Metolius-second young aged pine",
            "latitude": "44.3154",
            "longitude": "-121.6078"
        },
        "US-Me4": {
            "location": "Metolius-old aged ponderosa pine",
            "latitude": "44.4992",
            "longitude": "-121.6224"
        },
        "US-Me5": {
            "location": "Metolius-first young aged pine",
            "latitude": "44.4372",
            "longitude": "-121.5668"
        },
        "US-Me6": {
            "location": "Metolius Young Pine Burn",
            "latitude": "44.3233",
            "longitude": "-121.6078"
        },
        "US-Myb": {
            "location": "Mayberry Wetland",
            "latitude": "38.0499",
            "longitude": "-121.7650"
        },
        "US-NC4": {
            "location": "NC_AlligatorRiver",
            "latitude": "35.7879",
            "longitude": "-75.9038"
        },
        "US-NGB": {
            "location": "NGEE Arctic Barrow",
            "latitude": "71.2800",
            "longitude": "-156.6092"
        },
        "US-NGC": {
            "location": "NGEE Arctic Council",
            "latitude": "64.8618",
            "longitude": "-163.7002"
        },
        "US-NR1": {
            "location": "Niwot Ridge Forest (LTER NWT1)",
            "latitude": "40.0329",
            "longitude": "-105.5464"
        },
        "US-Ne1": {
            "location": "Mead - irrigated continuous maize site",
            "latitude": "41.1651",
            "longitude": "-96.4766"
        },
        "US-Ne2": {
            "location": "Mead - irrigated maize-soybean rotation site",
            "latitude": "41.1649",
            "longitude": "-96.4701"
        },
        "US-Ne3": {
            "location": "Mead - rainfed maize-soybean rotation site",
            "latitude": "41.1797",
            "longitude": "-96.4397"
        },
        "US-ORv": {
            "location": "Olentangy River Wetland Research Park",
            "latitude": "40.0201",
            "longitude": "-83.0183"
        },
        "US-OWC": {
            "location": "Old Woman Creek",
            "latitude": "41.3795",
            "longitude": "-82.5125"
        },
        "US-Oho": {
            "location": "Oak Openings",
            "latitude": "41.5545",
            "longitude": "-83.8438"
        },
        "US-PFa": {
            "location": "Park Falls/WLEF",
            "latitude": "45.9459",
            "longitude": "-90.2723"
        },
        "US-Prr": {
            "location": "Poker Flat Research Range Black Spruce Forest",
            "latitude": "65.1237",
            "longitude": "-147.4876"
        },
        "US-SRC": {
            "location": "Santa Rita Creosote",
            "latitude": "31.9083",
            "longitude": "-110.8395"
        },
        "US-SRG": {
            "location": "Santa Rita Grassland",
            "latitude": "31.7894",
            "longitude": "-110.8277"
        },
        "US-SRM": {
            "location": "Santa Rita Mesquite",
            "latitude": "31.8214",
            "longitude": "-110.8661"
        },
        "US-Snd": {
            "location": "Sherman Island",
            "latitude": "38.0366",
            "longitude": "-121.7540"
        },
        "US-Sne": {
            "location": "Sherman Island Restored Wetland",
            "latitude": "38.0369",
            "longitude": "-121.7547"
        },
        "US-Srr": {
            "location": "Suisun marsh - Rush Ranch",
            "latitude": "38.2006",
            "longitude": "-122.0264"
        },
        "US-StJ": {
            "location": "St Jones Reserve",
            "latitude": "39.0882",
            "longitude": "-75.4372"
        },
        "US-Sta": {
            "location": "Saratoga",
            "latitude": "41.3966",
            "longitude": "-106.8024"
        },
        "US-Syv": {
            "location": "Sylvania Wilderness Area",
            "latitude": "46.2420",
            "longitude": "-89.3477"
        },
        "US-Ton": {
            "location": "Tonzi Ranch",
            "latitude": "38.4309",
            "longitude": "-120.9660"
        },
        "US-Tw1": {
            "location": "Twitchell Wetland West Pond",
            "latitude": "38.1074",
            "longitude": "-121.6469"
        },
        "US-Tw2": {
            "location": "Twitchell Corn",
            "latitude": "38.0969",
            "longitude": "-121.6365"
        },
        "US-Tw3": {
            "location": "Twitchell Alfalfa",
            "latitude": "38.1152",
            "longitude": "-121.6469"
        },
        "US-Tw4": {
            "location": "Twitchell East End Wetland",
            "latitude": "38.1027",
            "longitude": "-121.6413"
        },
        "US-Tw5": {
            "location": "East Pond Wetland",
            "latitude": "38.1072",
            "longitude": "-121.6426"
        },
        "US-Twt": {
            "location": "Twitchell Island",
            "latitude": "38.1087",
            "longitude": "-121.6531"
        },
        "US-UMB": {
            "location": "Univ. of Mich. Biological Station",
            "latitude": "45.5598",
            "longitude": "-84.7138"
        },
        "US-UMd": {
            "location": "UMBS Disturbance",
            "latitude": "45.5625",
            "longitude": "-84.6975"
        },
        "US-Uaf": {
            "location": "University of Alaska, Fairbanks",
            "latitude": "64.8663",
            "longitude": "-147.8555"
        },
        "US-Var": {
            "location": "Vaira Ranch- Ione",
            "latitude": "38.4133",
            "longitude": "-120.9508"
        },
        "US-WCr": {
            "location": "Willow Creek",
            "latitude": "45.8059",
            "longitude": "-90.0799"
        },
        "US-WPT": {
            "location": "Winous Point North Marsh",
            "latitude": "41.4646",
            "longitude": "-82.9962"
        },
        "US-Whs": {
            "location": "Walnut Gulch Lucky Hills Shrub",
            "latitude": "31.7438",
            "longitude": "-110.0522"
        },
        "US-Wi0": {
            "location": "Young red pine (YRP)",
            "latitude": "46.6188",
            "longitude": "-91.0814"
        },
        "US-Wi1": {
            "location": "Intermediate hardwood (IHW)",
            "latitude": "46.7305",
            "longitude": "-91.2329"
        },
        "US-Wi2": {
            "location": "Intermediate red pine (IRP)",
            "latitude": "46.6869",
            "longitude": "-91.1528"
        },
        "US-Wi3": {
            "location": "Mature hardwood (MHW)",
            "latitude": "46.6347",
            "longitude": "-91.0987"
        },
        "US-Wi4": {
            "location": "Mature red pine (MRP)",
            "latitude": "46.7393",
            "longitude": "-91.1663"
        },
        "US-Wi5": {
            "location": "Mixed young jack pine (MYJP)",
            "latitude": "46.6531",
            "longitude": "-91.0858"
        },
        "US-Wi6": {
            "location": "Pine barrens #1 (PB1)",
            "latitude": "46.6249",
            "longitude": "-91.2982"
        },
        "US-Wi7": {
            "location": "Red pine clearcut (RPCC)",
            "latitude": "46.6491",
            "longitude": "-91.0693"
        },
        "US-Wi8": {
            "location": "Young hardwood clearcut (YHW)",
            "latitude": "46.7223",
            "longitude": "-91.2524"
        },
        "US-Wi9": {
            "location": "Young Jack pine (YJP)",
            "latitude": "46.7385",
            "longitude": "-91.0746"
        },
        "US-Wkg": {
            "location": "Walnut Gulch Kendall Grasslands",
            "latitude": "31.7365",
            "longitude": "-109.9419"
        },
        "ZA-Kru": {
            "location": "Skukuza",
            "latitude": "-25.0197",
            "longitude": "31.4969"
        },
        "ZM-Mon": {
            "location": "Mongu",
            "latitude": "-15.4391",
            "longitude": "23.2525"
        } 
    }
}
